[
  {
    "name": "Москва, Павелецкий вокзал",
    "lat": 55.730285,
    "lon": 37.636802
  },
  {
    "name": "Москва, Рижский вокзал",
    "lat": 55.793898,
    "lon": 37.633069
  },
  {
    "name": "м. Кузьминки",
    "lat": 55.705529796,
    "lon": 37.7653010159
  },
  {
    "name": "м. Войковская",
    "lat": 55.8175991765,
    "lon": 37.4983655238
  },
  {
    "name": "м. Киевская",
    "lat": 55.743556,
    "lon": 37.567633
  },
  {
    "name": "м. Фили",
    "lat": 55.7461479133509,
    "lon": 37.515279147774
  },
  {
    "name": "м. Парк Победы",
    "lat": 55.736486,
    "lon": 37.515491
  },
  {
    "name": "м. Партизанская",
    "lat": 55.788391,
    "lon": 37.746397
  },
  {
    "name": "м. Савёловская",
    "lat": 55.794251,
    "lon": 37.585953
  },
  {
    "name": "м. Партизанская (междугородняя автокасса)",
    "lat": 55.7885026019,
    "lon": 37.7474441193
  },
  {
    "name": "Москва, Ярославский вокзал",
    "lat": 55.776401,
    "lon": 37.658618
  },
  {
    "name": "м. Шоссе Энтузиастов",
    "lat": 55.758308,
    "lon": 37.751765
  },
  {
    "name": "Москва, Сущевский Вал, д.64",
    "lat": 55.79231357606657,
    "lon": 37.626355693522456
  },
  {
    "name": "Москва, Курский вокзал",
    "lat": 55.757426,
    "lon": 37.660867
  },
  {
    "name": "м. Измайловская",
    "lat": 55.7881668645,
    "lon": 37.7833630365
  },
  {
    "name": "Москва, м. Улица 1905 года",
    "lat": 55.765031,
    "lon": 37.560932
  },
  {
    "name": "Москва, Киевский вокзал",
    "lat": 55.743108,
    "lon": 37.56435
  },
  {
    "name": "м. Филевский парк",
    "lat": 55.7393608568,
    "lon": 37.4827877731
  },
  {
    "name": "м. Белорусская",
    "lat": 55.7768004905017,
    "lon": 37.58195976927681
  },
  {
    "name": "Москва, м. Площадь Ильича",
    "lat": 55.7469496606,
    "lon": 37.6807042317
  },
  {
    "name": "Москва, Казанский вокзал",
    "lat": 55.7723956034,
    "lon": 37.6567252185
  },
  {
    "name": "Москва, м. Парк Победы",
    "lat": 55.7363244044,
    "lon": 37.5176348846
  },
  {
    "name": "Москва, Киевский вокзал (по требованию)",
    "lat": 55.7416037986967,
    "lon": 37.5693871584394
  },
  {
    "name": "м. Черкизовская",
    "lat": 55.8048289593,
    "lon": 37.7447037218
  },
  {
    "name": "Больница имени Боткина",
    "lat": 55.7818327065666,
    "lon": 37.5547007739258
  },
  {
    "name": "м. ВДНХ, северная сторона",
    "lat": 55.822867,
    "lon": 37.64187
  },
  {
    "name": "Москва, м. Белорусская, улица Бутырский Вал",
    "lat": 55.7775078413,
    "lon": 37.5848978251
  },
  {
    "name": "м. Тимирязевская",
    "lat": 55.818046,
    "lon": 37.57631
  },
  {
    "name": "Москва, метро Петровский парк",
    "lat": 55.793031,
    "lon": 37.558017
  },
  {
    "name": "м. Текстильщики",
    "lat": 55.7092458213575,
    "lon": 37.7316526220851
  },
  {
    "name": "м. Полежаевская",
    "lat": 55.7768130661,
    "lon": 37.5163949588
  },
  {
    "name": "Москва, остановка \"Автостанция ВДНХ\"",
    "lat": 55.821736,
    "lon": 37.645526
  },
  {
    "name": "Кутузовский проспект, д.36а",
    "lat": 55.738575,
    "lon": 37.526312
  },
  {
    "name": "м. ВДНХ, южная сторона",
    "lat": 55.81907828030325,
    "lon": 37.638088734277865
  },
  {
    "name": "Москва, м. Павелецкая",
    "lat": 55.7317403481233,
    "lon": 37.6352290734021
  },
  {
    "name": "Комбинат ЖБК №2",
    "lat": 55.7226540727,
    "lon": 37.7704413794
  },
  {
    "name": "Театр Чихачёва",
    "lat": 55.7186161286,
    "lon": 37.7848609351
  },
  {
    "name": "Храм преподобного Сергия Радонежского",
    "lat": 55.7193650675,
    "lon": 37.7808578468
  },
  {
    "name": "Стахановская улица",
    "lat": 55.7258475547,
    "lon": 37.7611287497
  },
  {
    "name": "м. Кутузовская",
    "lat": 55.740023,
    "lon": 37.53442
  },
  {
    "name": "Кинотеатр \"Слава\"",
    "lat": 55.76259,
    "lon": 37.773946
  },
  {
    "name": "Спорткомплекс \"Измайловский\"",
    "lat": 55.8021797610458,
    "lon": 37.7507700642895
  },
  {
    "name": "ПО \"Сокол\"",
    "lat": 55.8038475935839,
    "lon": 37.7580656728102
  },
  {
    "name": "Сиреневый сад",
    "lat": 55.8055516091551,
    "lon": 37.7644171437575
  },
  {
    "name": "Калошино",
    "lat": 55.8068930153357,
    "lon": 37.7693309506725
  },
  {
    "name": "Монтажная улица",
    "lat": 55.8087902407791,
    "lon": 37.7763476094557
  },
  {
    "name": "3-я Парковая улица",
    "lat": 55.8097931946348,
    "lon": 37.7838363370248
  },
  {
    "name": "5-я Парковая улица",
    "lat": 55.8099502818095,
    "lon": 37.7885784825636
  },
  {
    "name": "м. Перово",
    "lat": 55.7513241736569,
    "lon": 37.7872908966635
  },
  {
    "name": "Карачаровская эстакада",
    "lat": 55.7277225429,
    "lon": 37.7553604916
  },
  {
    "name": "Институт Бетона",
    "lat": 55.7209638276382,
    "lon": 37.7755607105885
  },
  {
    "name": "Новоспасский мост",
    "lat": 55.7283622627707,
    "lon": 37.6505245199755
  },
  {
    "name": "Карачаровский путепровод",
    "lat": 55.7294796199401,
    "lon": 37.7483386727955
  },
  {
    "name": "Платформа Карачарово",
    "lat": 55.7318528440625,
    "lon": 37.7425880166676
  },
  {
    "name": "Бутырский вал, д.5",
    "lat": 55.77819,
    "lon": 37.585173
  },
  {
    "name": "Москва, Грузинский вал (дом 18/15)",
    "lat": 55.7731035599866,
    "lon": 37.578273216102
  },
  {
    "name": "Парк Победы",
    "lat": 55.73157,
    "lon": 37.490707
  },
  {
    "name": "Минская улица, 8",
    "lat": 55.7350428484,
    "lon": 37.4875369497
  },
  {
    "name": "Площадь Ромена Роллана",
    "lat": 55.7368949257,
    "lon": 37.4857378069
  },
  {
    "name": "Площадь Гагарина",
    "lat": 55.7087189551715,
    "lon": 37.5821570976812
  },
  {
    "name": "м. Октябрьская, кольцевая",
    "lat": 55.728776424,
    "lon": 37.6113395318
  },
  {
    "name": "м. Октябрьская, радиальная",
    "lat": 55.7310528259,
    "lon": 37.612112008
  },
  {
    "name": "м. Александровский Сад",
    "lat": 55.7529376761,
    "lon": 37.6112537011
  },
  {
    "name": "м. Охотный Ряд",
    "lat": 55.7575353661,
    "lon": 37.6143436059
  },
  {
    "name": "Пушкинская площадь",
    "lat": 55.7656167187466,
    "lon": 37.6037864311773
  },
  {
    "name": "Триумфальная площадь",
    "lat": 55.769487143037,
    "lon": 37.5962333305914
  },
  {
    "name": "м. Динамо",
    "lat": 55.7893192793,
    "lon": 37.557008706
  },
  {
    "name": "м. Аэропорт",
    "lat": 55.8003604645,
    "lon": 37.5323780779
  },
  {
    "name": "м. Сокол",
    "lat": 55.8052428563,
    "lon": 37.5143536333
  },
  {
    "name": "Театральная площадь",
    "lat": 55.7586864403836,
    "lon": 37.6188635839993
  },
  {
    "name": "Лубянская площадь",
    "lat": 55.7585890936094,
    "lon": 37.6281332983547
  },
  {
    "name": "м. Китай-Город",
    "lat": 55.7540696344419,
    "lon": 37.6340663446951
  },
  {
    "name": "м. Кропоткинская",
    "lat": 55.7454951328766,
    "lon": 37.6044440283352
  },
  {
    "name": "Спортклуб «Луч»",
    "lat": 55.7598835008911,
    "lon": 37.7735975276599
  },
  {
    "name": "ул. Металлургов",
    "lat": 55.7573682213815,
    "lon": 37.7808744278636
  },
  {
    "name": "Дворец творчества молодёжи",
    "lat": 55.7545951070514,
    "lon": 37.7769042037233
  },
  {
    "name": "Зелёный проспект",
    "lat": 55.7500025713021,
    "lon": 37.7796722434304
  },
  {
    "name": "Гомеопатический центр",
    "lat": 55.7620289805325,
    "lon": 37.7780598632454
  },
  {
    "name": "2-я Владимирская",
    "lat": 55.76335677036,
    "lon": 37.777788357405
  },
  {
    "name": "Платформа Маленковская",
    "lat": 55.8136347527,
    "lon": 37.6609664788
  },
  {
    "name": "Платформа Яуза",
    "lat": 55.8287210207,
    "lon": 37.669636213
  },
  {
    "name": "Поклонная гора",
    "lat": 55.734221,
    "lon": 37.505374
  },
  {
    "name": "Поклонная улица",
    "lat": 55.7389401701279,
    "lon": 37.5297122330825
  },
  {
    "name": "Панорама \"Бородинская битва\"",
    "lat": 55.738056443317,
    "lon": 37.5261717171829
  },
  {
    "name": "Новогиреевская улица",
    "lat": 55.7658112899677,
    "lon": 37.7899129239424
  },
  {
    "name": "3-я Владимирская улица",
    "lat": 55.764343,
    "lon": 37.782714
  }
]